[
  {
    "id": "1",
    "jobtype": "Flutter Developer",
    "jobtitle": "Ishraak Solutions is looking for some Senior App \n Developers with Flutter expertise. The primary role will be creating/modifying cross-platform applications (iOS, Android, and others) using Google's Flutter development framework.",
    "companyName": "Ishraak Solutions Limited",
    "latitude": "23.773649",
    "longitude": "90.411472"
  },
  {
    "id": "2",
    "jobtype": "Flutter",
    "jobtitle": "Niketan, House 76(Level 4), Road 4",
    "companyName": "Data Soft",
    "latitude": "23.785393",
    "longitude": "90.426811"
  },
  {
    "id": "3",
    "jobtype": "Flutter",
    "jobtitle": "Niketan, House 76(Level 4), Road 4",
    "companyName": "Leads",
    "latitude": "23.779315",
    "longitude": "90.408819"
  },
  {
    "id": "4",
    "jobtype": "Flutter",
    "jobtitle": "Niketan, House 76(Level 4), Road 4",
    "companyName": "Tiger It",
    "latitude": "23.785088",
    "longitude": "90.426811"
  },
  {
    "id": "5",
    "jobtype": "Flutter",
    "jobtitle": "Niketan, House 76(Level 4), Road 4",
    "companyName": "Ishraak Solutions Limited",
    "latitude": "23.776841",
    "longitude": "90.424192"
  },
  {
    "id": "6",
    "jobtype": "Flutter",
    "jobtitle": "Niketan, House 76(Level 4), Road 4",
    "companyName": "Ishraak Solutions Limited",
    "latitude": "23.766983",
    "longitude": "90.416848"
  },
  {
    "id": "7",
    "jobtype": "Flutter",
    "jobtitle": "Niketan, House 76(Level 4), Road 4",
    "companyName": "Ishraak Solutions Limited",
    "latitude": "23.767454",
    "longitude": "90.407572"
  },
  {
    "id": "8",
    "jobtype": "Flutter",
    "jobtitle": "Niketan, House 76(Level 4), Road 4",
    "companyName": "Ishraak Solutions Limited",
    "latitude": "23.763937",
    "longitude": "90.425666"
  },
  {
    "id": "9",
    "jobtype": "Flutter",
    "jobtitle": "Niketan, House 76(Level 4), Road 4",
    "companyName": "Ishraak Solutions Limited",
    "latitude": "23.784002",
    "longitude": "90.448276"
  },
  {
    "id": "10",
    "jobtype": "Flutter",
    "jobtitle": "Niketan, House 76(Level 4), Road 4",
    "companyName": "Ishraak Solutions Limited",
    "latitude": "23.751639",
    "longitude": "90.410986"
  }
]